City ID,City,Country,Lat,Lng,Temperature,Humidity,Clouds,Wind Speed
1490140,Tara,RU,56.8944,74.371,62.35,96,86,6.2
1546102,Port-aux-Français,TF,-49.35,70.2167,35.56,60,64,37.47
2454934,Kolondiéba,ML,11.0882,-6.8926,85.89,59,83,8.5
4513583,Hamilton,US,39.1834,-84.5333,86.18,68,75,9.22
4030723,Adamstown,PN,-25.066,-130.1015,73.24,80,99,36.13
5106841,Albany,US,42.6001,-73.9662,82.53,48,3,1.99
1847947,Shingū,JP,33.7333,135.9833,75.52,87,100,4.27
1507116,Dudinka,RU,69.4058,86.1778,61.63,95,37,7.9
3932145,Pisco,PE,-13.7,-76.2167,71.65,68,40,9.22
4032804,Waitangi,NZ,-43.9535,-176.5597,43.83,93,97,5.01
739598,Sinop Province,TR,41.7711,34.8709,66.87,81,0,2.71
5850248,Lihue,US,21.9789,-159.3672,78.22,85,100,20.71
3370726,Edinburgh of the Seven Seas,SH,-37.0676,-12.3116,53.28,58,29,23.26
5226534,Brookings,US,44.3114,-96.7984,74.41,61,75,11.5
5563839,Fortuna,US,40.5982,-124.1573,57.78,95,100,8.05
6354943,Egilsstadir,IS,65.2653,-14.3948,48.11,76,0,16.11
1489853,Tazovsky,RU,67.4667,78.7,66.09,74,67,8.05
3382867,Totness,SR,5.8833,-56.3167,86.05,64,9,11.39
964420,Port Elizabeth,ZA,-33.918,25.5701,50.09,60,52,10.8
3426466,Grytviken,GS,-54.2811,-36.5092,23.22,87,100,2.93
3430443,Necochea,AR,-38.5473,-58.7368,55.35,59,98,14.85
3874958,Puerto Natales,CL,-51.7236,-72.4875,35.15,99,100,5.64
2189529,Invercargill,NZ,-46.4,168.35,37.18,84,4,9.1
1735634,Kuching,MY,1.55,110.3333,76.57,94,40,2.3
1490256,Talnakh,RU,69.4865,88.3972,61.21,96,57,6.96
643629,Orivesi,FI,61.6777,24.3572,58.69,85,45,5.44
8224783,Stanley,GB,54.868,-1.6985,56.5,87,75,2.3
5282297,Bethel,US,41.3712,-73.414,82.65,59,40,5.75
1279715,Xigazê,CN,29.25,88.8833,62.17,46,31,2.95
2084442,Vanimo,PG,-2.6741,141.3028,77.11,90,91,5.53
2947894,Bleckede,DE,53.3,10.7333,63.41,56,68,7.9
3140301,Sandnessjøen,NO,66.0217,12.6316,57.36,77,75,3.44
6942076,Banlung,KH,13.7468,107.0045,71.91,100,100,2.01
2112232,Kitaibaraki,JP,36.7833,140.75,69.26,98,25,7.05
2640351,Peterhead,GB,57.5058,-1.7981,54.0,73,98,7.7
5856050,Holualoa,US,19.6228,-155.9522,76.82,86,75,4.61
3423146,Ilulissat,GL,69.2167,-51.1,46.42,93,75,4.61
3587498,Acajutla,SV,13.5928,-89.8275,91.31,54,42,6.6
1622318,Waingapu,ID,-9.6567,120.2641,71.44,81,2,5.86
3833367,Ushuaia,AR,-54.8,-68.3,31.1,85,100,2.68
7304591,West Island,CC,-12.1568,96.8225,76.98,73,40,17.27
5879898,Badger,US,64.8,-147.5333,61.84,93,100,4.61
2156643,Mount Gambier,AU,-37.8333,140.7667,43.88,81,33,4.23
1647866,Bukittinggi,ID,-0.3091,100.3706,63.55,98,100,2.26
4935578,Eastham,US,41.8301,-69.9739,77.7,72,0,8.05
2185172,Papatowai,NZ,-46.5619,169.4708,41.7,71,6,17.67
2015179,Tommot,RU,58.9564,126.2925,51.53,96,90,3.65
7522183,Atafu Village,TK,-8.5421,-172.5159,82.62,79,25,11.21
6185377,Yellowknife,CA,62.456,-114.3525,79.32,44,100,5.75
569295,Cherëmukhovo,RU,60.3484,59.9851,58.95,95,78,4.97
1015776,Bredasdorp,ZA,-34.5322,20.0403,47.53,79,19,9.33
2015306,Tiksi,RU,71.6872,128.8694,42.28,69,38,12.06
1500933,Labytnangi,RU,66.6572,66.4183,67.21,82,100,4.9
2014624,Udachny,RU,66.4167,112.4,55.45,93,95,0.25
3664956,Boca do Acre,BR,-8.7522,-67.3978,93.58,33,43,3.96
1607579,Pho Thong,TH,14.6673,100.4088,85.23,72,97,5.1
3424901,Aasiaat,GL,68.7098,-52.8699,39.74,97,100,13.04
4041552,Saipan,MP,15.1355,145.701,82.65,100,20,5.75
3893629,Coquimbo,CL,-29.9533,-71.3436,58.73,88,100,13.8
935214,Saint-Pierre,RE,-21.3393,55.4781,71.24,78,0,6.91
1275435,Biswān,IN,27.5,81.0,91.54,56,19,6.44
5881165,Ta`ū,AS,-14.2336,-169.5144,79.02,77,100,22.26
1788852,Xining,CN,36.6167,101.7667,50.76,81,27,3.13
2126682,Bilibino,RU,68.0546,166.4372,57.16,68,98,1.14
2066981,Margaret River,AU,-33.95,115.0667,58.44,73,53,18.07
1006984,East London,ZA,-33.0153,27.9116,50.94,76,20,3.44
3415667,Isafjordur,IS,66.0755,-23.124,51.84,76,40,3.44
3366880,Hermanus,ZA,-34.4187,19.2345,52.81,71,3,17.31
3652758,Puerto Baquerizo Moreno,EC,-0.9,-89.6,81.59,78,20,10.36
3925075,Guajará-Mirim,BR,-10.7828,-65.3394,86.16,54,0,6.91
2377457,Nouadhibou,MR,20.931,-17.0347,75.18,78,66,16.11
2476403,Timimoun,DZ,29.2639,0.231,110.12,7,0,14.16
2175527,Blackmans Bay,AU,-43.0167,147.3167,39.36,88,61,6.15
2063036,Port Lincoln,AU,-34.7333,135.8667,50.81,67,41,7.02
1503153,Klyuchi,RU,52.2667,79.1667,69.33,59,45,6.87
1055433,Tôlanaro,MG,-25.0319,46.9987,67.69,87,3,5.32
3378690,Catherinas Lust,GY,6.4,-57.6,84.97,67,14,9.19
6941080,Fort Bragg,US,35.139,-79.006,91.31,52,20,4.61
1937274,Lospalos,TL,-8.5186,127.0025,67.77,94,14,5.82
3374725,Cidade Velha,CV,14.9167,-23.6167,84.67,70,75,17.27
64814,Bandarbeyla,SO,9.4942,50.8122,74.23,87,99,30.51
5983720,Iqaluit,CA,63.7506,-68.5145,40.69,93,100,5.01
3115941,Mugia,ES,43.1041,-9.2179,71.91,77,2,6.35
2278158,Buchanan,LR,5.8808,-10.0467,76.8,91,99,11.92
5122534,Jamestown,US,42.097,-79.2353,78.58,54,75,13.8
479071,Umba,RU,66.6871,34.3429,61.3,69,100,13.06
3355672,Lüderitz,NA,-26.6481,15.1594,58.78,56,0,14.36
4676798,Brownwood,US,31.7093,-98.9912,97.88,28,0,8.05
2280333,Toulépleu Gueré,CI,6.574,-8.4259,75.18,96,69,4.81
7306511,Enewetak,MH,11.3474,162.3373,83.32,77,87,10.89
7262802,Wailua Homesteads,US,22.0669,-159.378,75.31,86,100,20.71
3652764,Puerto Ayora,EC,-0.7393,-90.3518,77.56,96,63,10.0
3354071,Oranjemund,NA,-28.55,16.4333,59.97,41,0,15.79
6180550,Whitehorse,CA,60.7161,-135.0538,62.91,48,100,1.99
3347019,Mossamedes,AO,-15.1961,12.1522,65.59,79,33,8.43
2081342,Tofol,FM,5.3248,163.0078,81.66,84,100,27.09
3456864,Monte Azul,BR,-15.155,-42.8747,83.03,34,46,15.01
2276492,Harper,LR,4.375,-7.7169,77.99,85,90,13.29
3466165,Cidreira,BR,-30.1811,-50.2056,64.17,81,100,17.11
1735106,George Town,MY,5.4112,100.3354,80.26,89,20,0.0
562245,Gadzhiyevo,RU,69.2551,33.3362,48.97,86,100,19.26
2119447,Yuzhno-Kurilsk,RU,44.0306,145.8556,55.22,94,6,5.48
1257540,Sambhal,IN,28.5833,78.55,91.06,53,2,5.68
5991148,Kentville,CA,45.0835,-64.4988,79.11,69,96,4.61
5594956,Hailey,US,43.5196,-114.3153,81.9,39,0,11.5
3094802,Krakow,PL,50.0833,19.9167,64.62,83,20,4.61
2447938,Alaghsas,NE,17.0187,8.0168,98.2,22,72,12.77
4036284,Alofi,NU,-19.0595,-169.9187,74.57,69,100,23.06
1798998,Dadukou,CN,26.5479,101.7054,71.22,92,92,1.48
7262697,Haiku-Pauwela,US,20.9219,-156.3051,75.61,82,40,16.11
2026583,Bodaybo,RU,57.8506,114.1933,51.73,96,89,2.51
964408,Port Saint John's,ZA,-31.6229,29.5448,57.63,55,93,3.83
2122104,Petropavlovsk-Kamchatskiy,RU,53.0452,158.6483,51.78,100,100,1.1
5855809,Hawaiian Paradise Park,US,19.5933,-154.9731,73.26,97,100,1.01
3026644,La Passe,FR,45.5549,-0.8967,70.57,67,81,13.53
1276574,Bela,IN,25.9333,81.9833,93.36,49,54,6.91
2108857,Gizo Government Station,SB,-8.103,156.8419,80.49,85,99,17.47
368246,Raja,SS,8.4596,25.678,75.85,76,85,3.98
2144528,Warrnambool,AU,-38.3833,142.4833,48.34,71,49,12.97
4035715,Avarua,CK,-21.2078,-159.775,69.85,60,75,4.61
1524325,Ekibastuz,KZ,51.6667,75.3667,73.56,46,37,8.84
1713917,El Nido,PH,11.1858,119.3956,79.7,84,100,3.65
1800065,Nangong,CN,37.3581,115.3744,76.95,85,57,5.79
3897334,Calbuco,CL,-41.768,-73.1273,60.01,83,81,11.48
2122605,Okhotsk,RU,59.3833,143.3,52.77,93,77,3.15
915471,Kalabo,ZM,-14.97,22.6814,66.85,30,6,2.84
1021360,Ballitoville,ZA,-29.539,31.2144,53.74,82,100,11.5
695740,Razdol’noye,UA,45.7708,33.4878,74.79,71,53,13.2
3372707,Ribeira Grande,PT,38.5167,-28.7,73.8,83,40,4.61
6533368,Moranbah,AU,-22.0016,148.0466,56.75,91,26,6.71
6113406,Prince Rupert,CA,54.3161,-130.3201,59.09,94,40,4.61
3883457,Lebu,CL,-37.6167,-73.65,54.57,97,100,21.59
863061,Usinsk,RU,65.9939,57.5281,66.58,72,86,5.82
3858677,El Calafate,AR,-50.3408,-72.2768,37.76,97,100,1.88
1631761,Pekanbaru,ID,0.5333,101.45,75.52,94,40,8.05
4164092,Merritt Island,US,28.5392,-80.672,92.46,59,0,10.36
1280281,Chamdo,CN,31.1667,97.2333,39.18,74,51,2.44
3935288,Minas de Marcona,PE,-15.2119,-75.1103,65.5,58,29,9.46
5733351,Jackson,US,42.4165,-122.8345,79.63,46,0,5.99
2290609,Dabakala,CI,8.3667,-4.4333,81.48,79,78,3.04
3520994,Brisas de Zicatela,MX,15.8369,-97.0419,90.12,62,20,5.75
3848353,Las Heras,AR,-46.5419,-68.9359,40.39,88,100,6.62
1735799,Simanggang,MY,1.2472,111.4528,73.54,100,100,1.59
3419842,Sisimiut,GL,66.9395,-53.6735,50.68,92,100,2.51
3386931,Tamandaré,BR,-8.7597,-35.1047,79.03,66,58,13.78
3397963,Itamaracá,BR,-7.7478,-34.8256,80.65,64,48,15.59
4670234,Alice,US,27.7523,-98.0697,99.16,41,20,12.66
3664659,Carauari,BR,-4.8828,-66.8958,95.04,32,29,4.92
5557293,Sitka,US,57.0531,-135.33,60.69,77,75,3.44
5916722,Carbonear,CA,47.7332,-53.2148,71.04,84,76,13.78
1805518,Jining,CN,35.405,116.5814,76.08,95,44,8.77
3420846,Qaqortoq,GL,60.7167,-46.0333,45.91,90,100,5.7
1128239,Rūdbār,AF,30.15,62.6,98.82,14,100,23.98
3380892,Rémire-Montjoly,GF,4.9167,-52.2667,87.84,66,75,10.36
7535941,Olonkinbyen,SJ,70.9221,-8.7187,42.4,83,100,2.15
526565,Mil’kovo,RU,55.6078,37.7956,63.82,72,38,8.19
4034745,Afaahiti,PF,-17.75,-149.2833,73.27,66,65,19.19
2138285,Tadine,NC,-21.55,167.8833,66.47,67,3,12.88
212360,Kongolo,CD,-5.3833,27.0,84.24,29,8,4.29
5925024,Cold Lake,CA,54.4502,-110.2017,67.95,60,37,3.47
3452483,Prado,BR,-17.3411,-39.2208,74.14,80,88,7.78
2140691,Koné,NC,-21.0595,164.8658,59.16,83,13,3.33
3995155,Nacozari de Garcia,MX,30.3742,-109.6908,94.98,27,12,5.23
3374117,Nova Sintra,CV,14.8667,-24.7167,75.33,73,82,2.08
3567995,Bahía Honda,CU,22.9036,-83.1592,90.43,61,43,11.07
1835895,Seosan City,KR,36.7817,126.4522,71.8,82,1,1.05
5333207,Cambria,US,35.5641,-121.0808,83.93,57,7,7.16
2192362,Christchurch,NZ,-43.5333,172.6333,36.81,80,60,4.61
3986172,San José del Cabo,MX,23.0589,-109.6977,94.24,62,0,11.5
5866583,Saint Paul Harbor,US,57.79,-152.4072,51.31,100,20,0.0
2643743,London,GB,51.5085,-0.1257,69.93,47,99,5.75
1510377,Belyy Yar,RU,53.6039,91.3903,67.89,73,0,2.24
2128975,Nemuro,JP,43.3236,145.575,56.77,93,8,4.32
5364271,Laguna,US,38.421,-121.4238,83.5,47,0,5.75
1519030,Chu,KZ,43.5983,73.7614,81.72,25,1,8.68
4755280,Danville,US,36.586,-79.395,87.67,61,75,5.75
3489854,Kingston,JM,17.997,-76.7936,95.74,41,82,12.75
4460243,Charlotte,US,35.2271,-80.8431,90.19,57,75,6.35
7306518,Utrik,MH,11.2278,169.8474,83.19,77,86,18.19
2074865,Carnarvon,AU,-24.8667,113.6333,57.51,46,0,19.53
680963,Constanța,RO,44.1833,28.65,77.68,73,32,11.41
6534196,Tazacorte,ES,28.629,-17.9293,79.14,80,75,17.27
4727629,Sealy,US,29.7808,-96.1572,96.69,27,11,5.48
2511230,San Sebastián de La Gomera,ES,28.0916,-17.1133,79.16,69,0,13.8
4726521,San Patricio,US,28.017,-97.5169,94.33,41,35,14.99
2013639,Verkhnevilyuysk,RU,63.4453,120.3167,62.38,74,47,4.65
2065176,Murray Bridge,AU,-35.1167,139.2667,47.12,75,12,9.13
75427,Hadibu,YE,12.65,54.0333,77.77,79,100,18.52
3622716,Nicoya,CR,10.1483,-85.452,89.78,61,36,10.31
1337613,Kulhudhuffushi,MV,6.6221,73.07,83.26,80,80,17.18
3701861,Río Hato,PA,8.3833,-80.1667,85.87,63,47,12.15
1516393,Altai,MN,46.3722,96.2583,64.98,27,9,2.86
5381515,Patterson,US,37.4716,-121.1297,80.64,18,0,5.86
1272502,Diu,IN,20.7141,70.9822,80.69,88,98,14.14
3372760,Praia da Vitória,PT,38.7333,-27.0667,72.75,91,100,4.23
3445026,Vila Velha,BR,-20.3297,-40.2925,73.94,78,75,11.5
2078127,Flying Fish Cove,CX,-10.4217,105.6791,74.88,78,100,12.66
5868651,Meadow Lakes,US,61.6247,-149.6011,56.77,93,100,1.01
3354876,Okakarara,NA,-20.5833,17.4333,57.88,18,1,6.67
2729907,Longyearbyen,SJ,78.2186,15.6401,53.44,71,20,19.57
6165406,Thompson,CA,55.7435,-97.8558,77.16,50,75,8.05
3874787,Punta Arenas,CL,-53.15,-70.9167,35.49,64,99,14.07
5994839,Labrador City,CA,52.9463,-66.9114,60.71,67,100,5.75
2020584,Magistral'nyy,RU,56.1725,107.4458,55.11,75,9,4.41
1785777,Yulinshi,CN,38.2906,109.7494,71.1,66,69,6.31
866062,Iskateley,RU,67.6803,53.1512,54.03,87,98,14.99
4824469,Teays Valley,US,38.4501,-81.9293,84.6,68,90,6.08
3946083,Callao,PE,-12.0667,-77.15,75.49,57,20,10.36
2215210,Al Burayqah,LY,30.4062,19.5739,81.81,76,0,15.19
2347061,Sofo-Birnin-Gwari,NG,11.0154,6.7804,75.47,86,83,3.69
3899361,Arica,CL,-18.475,-70.3042,66.43,68,75,11.5
881345,Shamva,ZW,-17.3116,31.5756,64.71,54,17,7.58
2026861,Berdigestyakh,RU,62.0989,126.6992,50.49,97,100,3.83
1516788,Zhangatas,KZ,43.5667,69.75,79.65,25,0,8.37
256930,Myrina,GR,39.8797,25.0742,83.44,74,0,4.61
2167426,Emerald,AU,-23.5333,148.1667,61.34,72,50,6.82
2297810,Mumford,GH,5.2618,-0.759,77.56,86,39,11.45
135423,Shahrud,IR,36.4182,54.9763,75.29,49,37,11.7
3405304,Bom Jesus,BR,-9.0744,-44.3586,92.84,15,5,11.01
2013392,Vilyuysk,RU,63.7553,121.6247,60.44,75,58,5.93
777073,Vadsø,NO,70.0744,29.7487,46.56,93,75,23.02
4034821,Mata-Utu,WF,-13.2816,-176.1745,81.45,82,83,10.83
113659,Tabas,IR,33.5959,56.9244,96.75,16,45,11.63
2188874,Kerikeri,NZ,-35.2268,173.9474,43.92,95,22,2.55
5394329,Selma,US,36.5708,-119.6121,89.58,42,0,4.61
3985710,Cabo San Lucas,MX,22.8909,-109.9124,96.75,43,20,8.05
1278969,Along,IN,28.1667,94.7667,77.02,91,88,1.23
964432,Port Alfred,ZA,-33.5906,26.891,56.01,53,66,13.11
2022773,Khandyga,RU,62.6667,135.6,58.51,90,86,2.66
756316,Hola,PL,51.5377,23.1902,62.78,79,76,5.91
2012593,Zeya,RU,53.75,127.2667,54.39,95,12,4.32
1649150,Bengkulu,ID,-3.8004,102.2655,75.63,89,100,3.0
2616914,Miðvágur,FO,62.0511,-7.1939,49.03,93,100,16.11
3454005,Piaçabuçu,BR,-10.4056,-36.4344,77.59,73,2,14.97
53654,Mogadishu,SO,2.0371,45.3438,77.18,88,89,18.45
3200930,Tomislavgrad,BA,43.7181,17.2267,70.03,73,0,3.4
3861329,Choele Choel,AR,-39.2667,-65.6833,63.48,34,71,25.75
5129050,North Gates,US,43.1764,-77.7014,82.94,57,40,8.05
4038473,Piti Village,GU,13.4626,144.6933,81.05,87,0,5.75
1486913,Vorgashor,RU,67.5833,63.95,67.26,72,97,5.7
1280517,Nagqu Prefecture,CN,31.5,92.0,37.29,64,3,4.27
2332515,Lafia,NG,8.4833,8.5167,81.9,72,82,5.17
539817,Kudymkar,RU,59.0173,54.656,57.51,90,42,6.73
4012341,Cuerámaro,MX,20.6167,-101.7167,80.02,37,67,5.41
3523590,Mapastepec,MX,15.4333,-92.9,94.44,50,15,7.25
3672087,Salahonda,CO,2.1019,-78.7217,82.33,82,12,12.91
4553440,Tulsa,US,36.1001,-95.9003,91.67,56,97,3.0
2033135,Zhengjiatun,CN,43.5064,123.5064,73.94,67,83,5.26
1275930,Bhīmunipatnam,IN,17.8833,83.4333,81.91,91,100,8.57
124665,Mashhad,IR,36.297,59.6062,80.74,44,0,6.91
5184422,Clarion,US,41.2148,-79.3853,79.7,68,8,1.01
3840104,Puerto Deseado,AR,-47.7503,-65.8938,48.13,74,100,6.87
760488,Reszel,PL,54.0504,21.1458,58.1,84,68,9.51
3430863,Mar del Plata,AR,-38.0023,-57.5575,55.94,69,100,18.01
1492566,Severo-Yeniseyskiy,RU,60.3725,93.0408,57.76,59,4,4.07
610613,Aksay,KZ,51.1678,52.995,66.99,55,56,8.01
4985180,Bay City,US,43.5945,-83.8889,77.74,66,100,0.0
2473747,El Hamma,TN,33.8915,9.7963,103.32,13,0,13.13
3394023,Natal,BR,-5.795,-35.2094,83.05,61,40,11.5
3461888,Guarapari,BR,-20.6667,-40.4975,73.89,83,100,9.06
3832923,Victorica,AR,-36.2151,-65.4359,62.08,33,66,17.81
2306774,San Antonio de Palé,GQ,-1.4014,5.6325,74.75,83,79,11.43
2077895,Alice Springs,AU,-23.7,133.8833,45.95,81,40,6.91
1648082,Boyolangu,ID,-8.1181,111.8935,70.75,93,47,2.73
2643044,Margate,GB,51.3813,1.3862,63.75,77,69,5.01
5859699,College,US,64.8569,-147.8028,61.18,94,100,4.61
1071296,Antalaha,MG,-14.9003,50.2788,71.62,93,98,4.97
3901547,Villamontes,BO,-21.25,-63.5,84.7,32,11,9.62
1629974,Malango,ID,-2.9627,119.9001,67.73,98,83,0.83
4034307,Mahina,PF,-17.5065,-149.489,74.97,60,75,17.27
4033951,Papao,PF,-17.75,-149.55,74.88,65,50,17.83
523392,Naryan-Mar,RU,67.6713,53.087,54.14,87,98,15.1
2738381,Lata,PT,40.1629,-8.3327,68.81,57,0,11.77
1562414,Vung Tau,VN,10.346,107.0843,78.31,87,89,16.22
828218,Zaozërsk,RU,69.4005,32.4476,48.24,92,100,19.22
1337606,Eydhafushi,MV,5.1033,73.0708,82.71,80,99,14.56
5993072,Kitimat,CA,54.0524,-128.6534,76.3,65,44,1.01
3448455,São Miguel do Araguaia,BR,-13.275,-50.1628,93.96,16,18,10.33
64536,Baidoa,SO,3.1138,43.6498,81.54,50,100,18.19
57000,Hobyo,SO,5.3505,48.5268,78.1,80,85,28.68
2092164,Lorengau,PG,-2.0226,147.2712,80.53,81,14,8.97
3415496,Keflavik,IS,64.0049,-22.5624,54.03,87,75,5.75
3183284,Alghero,IT,40.5589,8.3181,84.29,74,0,10.36
1545752,Port Mathurin,MU,-19.6833,63.4167,74.12,71,13,19.13
2171099,Codrington,AU,-38.2667,141.9667,44.53,76,47,8.95
935215,Saint-Philippe,RE,-21.3585,55.7679,71.19,87,46,8.5
2510392,Tomelloso,ES,39.1522,-3.0243,94.51,11,29,20.02
1630058,Karaton,ID,-6.3424,106.1045,72.84,85,77,1.23
5921147,Chibougamau,CA,49.9168,-74.3659,63.46,58,100,4.97
5762718,Belle Fourche,US,44.6714,-103.8522,72.43,54,100,3.4
1504442,Karatuzskoye,RU,53.6072,92.8667,64.45,59,71,2.57
3452331,Presidente Epitácio,BR,-21.7633,-52.1156,84.61,40,0,11.77
2020591,Magdagachi,RU,53.45,125.8,52.54,83,6,4.92
4845585,Westport,US,41.1415,-73.3579,82.63,60,0,10.36
157268,Kingori,TZ,-3.2833,36.9833,65.55,56,5,2.68
2191562,Dunedin,NZ,-45.8742,170.5036,45.81,60,42,5.99
3505855,Esperanza,DO,19.5847,-70.9849,93.78,32,39,16.51
1254046,Tura,IN,25.5198,90.2201,76.66,95,100,3.83
952865,Springs,ZA,-26.25,28.4,46.85,89,96,15.5
537007,Lapinlaksha,RU,65.5833,30.5667,57.13,99,100,3.49
488742,Starominskaya,RU,46.53,39.0497,72.63,43,38,8.08
3448257,São Sebastião,BR,-23.76,-45.4097,66.38,91,97,10.27
2994616,Arrondissement de Mende,FR,44.6667,3.5,69.12,47,15,6.69
3449112,São Francisco do Sul,BR,-26.2433,-48.6381,63.84,88,100,4.9
5848280,Kapaa,US,22.0752,-159.319,76.89,83,100,20.71
5024719,Duluth,US,46.7833,-92.1066,69.85,73,40,9.22
5935341,Dauphin,CA,51.1494,-100.0502,77.14,53,0,8.05
6173017,Val-d'Or,CA,48.1002,-77.7828,73.49,46,75,8.05
2142747,Wynyard,AU,-41.0,145.7167,44.58,86,23,8.52
5970458,Happy Valley-Goose Bay,CA,53.3168,-60.3315,73.71,46,75,12.66
3393838,Nova Olinda do Norte,BR,-3.8881,-59.0942,99.48,24,4,5.21
5380437,Pacific Grove,US,36.6177,-121.9166,55.72,93,100,11.99
3446550,Tibagi,BR,-24.5094,-50.4136,70.56,64,50,5.7
1783745,Zigong,CN,29.3416,104.7769,75.27,97,97,5.12
3408368,Acaraú,BR,-2.8856,-40.12,86.83,50,0,18.43
2886242,Cologne,DE,50.9333,6.95,72.12,46,0,4.61
6453316,Tromsø,NO,69.6496,18.957,58.37,76,20,18.41
1862505,Hirara,JP,24.8,125.2833,83.01,75,95,12.24
7521939,Diego Martin,TT,10.7005,-61.5342,85.28,69,98,1.01
2147714,Sydney,AU,-33.8679,151.2073,51.48,53,75,14.97
3894871,Chonchi,CL,-42.6128,-73.8092,55.11,78,66,10.36
3381303,Kourou,GF,5.1552,-52.6478,87.85,66,17,7.96
3452478,Pradópolis,BR,-21.3594,-48.0656,84.38,33,0,6.89
2101169,Aitape,PG,-3.1374,142.3475,78.21,83,56,5.53
6082231,Mount Pearl,CA,47.5166,-52.7813,82.89,70,75,21.85
3571898,Matthew Town,BS,20.95,-73.6667,86.0,73,64,20.4
1052373,Beira,MZ,-19.8436,34.8389,73.49,88,20,8.05
2158767,Mareeba,AU,-17.0,145.4333,63.48,98,39,1.92
2742416,Barcelos,PT,41.5388,-8.6151,73.74,66,12,10.85
2206890,Masterton,NZ,-40.9597,175.6575,47.88,81,100,10.6
2767471,Ried im Innkreis,AT,48.2112,13.4886,74.08,55,47,4.79
1005029,eSikhaleni,ZA,-28.871,31.8996,58.3,80,100,12.73
140463,Birjand,IR,32.8663,59.2211,77.99,28,6,11.68
77726,Ataq,YE,14.5377,46.8319,87.89,38,99,8.55
5703673,Elko,US,41.0002,-115.5012,82.15,37,0,5.01
3168393,San Felice Circeo,IT,41.2372,13.0942,84.9,83,1,1.01
460187,Dundaga,LV,57.5167,22.35,59.14,70,27,9.26
1283119,Lobujya,NP,27.95,86.8167,39.02,86,57,1.72
1278862,Ambajogai,IN,18.7333,76.3833,71.62,91,100,18.54
5964378,Grand Falls-Windsor,CA,48.9332,-55.6649,73.47,80,100,6.96
2493456,Illizi,DZ,26.4833,8.4667,102.0,11,0,15.23
2376193,Tidjikja,MR,18.5564,-11.4271,97.77,26,86,18.12
2012349,Krasnyy Chikoy,RU,50.3643,108.7512,53.74,60,6,1.5
3899629,Angol,CL,-37.8,-72.7167,55.38,96,100,8.57
2111855,Mobara,JP,35.4167,140.3,73.85,91,5,6.4
1503037,Kodinsk,RU,58.6881,99.1844,61.47,59,6,2.35
7521611,Tarawa,KI,1.419,172.984,83.1,78,83,10.69
3579761,Baillif,GP,16.0202,-61.7463,87.3,65,99,13.38
3833112,Veinticinco de Mayo,AR,-35.4323,-60.1727,62.98,52,65,7.0
3456102,Nova Viçosa,BR,-17.8919,-39.3719,73.09,85,98,15.88
3628489,San Carlos del Zulia,VE,9.0,-71.9135,96.96,38,19,4.29
3392054,Pinheiro,BR,-2.5214,-45.0825,90.43,41,47,4.83
4033205,Uturoa,PF,-16.7333,-151.4333,76.37,64,38,19.37
2802501,Beauraing,BE,50.1104,4.9555,73.49,53,98,3.47
2450173,Taoudenni,ML,22.6783,-3.9836,114.73,5,1,7.31
1185115,Sirajganj,BD,24.45,89.7167,85.8,80,80,12.19
3664525,Codajás,BR,-3.8367,-62.0569,97.59,27,17,4.85
1636806,Majene,ID,-3.5403,118.9707,77.45,88,22,11.95
5955895,Fort McMurray,CA,56.7268,-111.381,78.1,49,68,2.3
2155562,Nelson Bay,AU,-32.7167,152.15,53.26,54,1,8.01
5851349,Nānākuli,US,21.3906,-158.1547,78.69,73,40,5.75
1253237,Verāval,IN,20.9,70.3667,81.3,87,91,14.43
3577430,Road Town,VG,18.4167,-64.6167,87.84,70,20,9.22
264670,Argos,GR,37.6333,22.7333,89.78,42,1,3.0
933685,Kanye,BW,-24.9667,25.3327,56.48,42,20,13.82
4038282,Angaur State,PW,6.906,134.13,83.61,78,100,18.16
2036734,Huangnihe,CN,43.5583,128.0239,67.62,94,81,2.8
3664980,Boa Vista,BR,2.8197,-60.6733,89.58,51,75,5.75
2470088,Jendouba,TN,36.5011,8.7802,96.82,19,0,13.8
3449053,São Gotardo,BR,-19.3111,-46.0489,70.02,56,95,8.59
2081114,Weno,FM,7.4515,151.8468,82.35,89,100,3.44
1308522,Monywa,MM,22.1167,95.1333,81.32,85,100,6.26
3386213,Touros,BR,-5.1989,-35.4608,81.37,64,22,20.22
2081986,Palikir,FM,6.9248,158.1611,82.22,79,100,11.48
6100069,Peace River,CA,56.2501,-117.286,75.51,53,40,3.44
3421319,Nuuk,GL,64.1835,-51.7216,50.61,93,75,3.44
584586,Zǝrdab,AZ,40.2183,47.7083,81.93,55,6,12.19
2961730,Roscrea,IE,52.9511,-7.8017,60.6,77,69,7.99
3985797,San Julián,MX,21.0167,-102.1667,76.53,38,78,7.65
1809498,Guilin,CN,25.2819,110.2864,77.18,91,82,1.41
3516149,Villa Tecolutilla,MX,18.2833,-93.3167,90.93,54,79,7.23
1060007,Marolambo,MG,-20.05,48.1167,65.55,89,54,0.89
3397562,Jardim de Piranhas,BR,-6.3786,-37.3519,92.73,24,0,19.1
2120048,Ust-Nera,RU,64.5667,143.2,68.02,47,64,5.68
1268015,Kanhangad,IN,12.3081,75.1063,78.98,90,100,11.1
2145554,Ulladulla,AU,-35.35,150.4667,56.23,53,70,7.43
1282256,Hithadhoo,MV,-0.6,73.0833,82.92,76,26,20.04
1259385,Port Blair,IN,11.6667,92.75,81.68,84,100,17.16
3347762,Lubango,AO,-14.9172,13.4925,56.35,33,0,3.29
301609,Sarıoğlan,TR,39.0769,35.9667,70.41,43,0,4.07
2122850,Nikolayevsk-on-Amur,RU,53.1406,140.73,61.14,98,68,3.22
7306523,Mejit,MH,10.2753,170.8646,82.76,81,97,20.09
6101607,Petawawa,CA,45.9001,-77.3328,76.69,59,100,2.3
2012938,Yerofey Pavlovich,RU,53.9667,121.9667,49.14,84,1,2.21
1281019,Hotan,CN,37.0997,79.9269,87.6,14,78,4.5
216449,Gandajika,CD,-6.75,23.95,81.68,25,88,3.76
3533462,Acapulco de Juárez,MX,16.8634,-99.8901,89.42,62,20,5.75
490391,Sosnogorsk,RU,63.6023,53.8817,62.04,93,72,5.06
1489870,Tayshet,RU,55.9342,98.0044,55.18,73,0,3.96
4480153,Morehead City,US,34.7229,-76.726,86.31,79,40,12.66
4853551,De Witt,US,41.8234,-90.5382,81.0,53,0,13.8
2026786,Berezovyy,RU,51.6667,135.7,70.48,61,94,4.25
1645749,Dampit,ID,-8.2116,112.7493,65.64,90,24,3.67
2170577,Cooma,AU,-36.2333,149.1333,41.52,83,77,3.47
3911925,La Paz,BO,-16.5,-68.15,63.57,25,20,12.66
6050066,La Ronge,CA,55.1001,-105.2842,73.65,49,75,10.36
2128382,Rumoi,JP,43.9344,141.6428,63.66,94,7,4.74
88562,At Tāj,LY,24.2049,23.2857,91.54,15,0,10.11
3899695,Ancud,CL,-41.8697,-73.8203,52.57,88,58,19.19
7601774,Bikenibeu Village,KI,1.3673,173.1241,83.5,77,75,10.89
3868633,Vallenar,CL,-28.5708,-70.7581,80.35,12,98,4.09
1847050,Gaigeturi,KR,33.4644,126.3183,76.42,89,100,2.59
5746545,Portland,US,45.5234,-122.6762,74.64,56,20,1.99
5324862,Artesia,US,33.8658,-118.0831,82.24,60,0,5.75
2118647,Vilyuchinsk,RU,52.9306,158.4028,53.26,96,98,0.87
2374583,Bubaque,GW,11.2833,-15.8333,81.18,80,99,13.0
3372988,Horta,PT,38.5333,-28.6333,72.01,91,20,4.61
7306520,Rongelap,MH,11.1635,166.8941,83.66,80,100,16.35
1337619,Ugoofaaru,MV,5.6667,73.0,82.71,81,100,14.67
3861262,Chos Malal,AR,-37.3781,-70.2709,61.29,37,95,14.56
4026082,Lázaro Cárdenas,MX,17.9583,-102.2,89.53,59,99,1.54
5554428,Ketchikan,US,55.3422,-131.6461,64.87,77,40,9.22
1504382,Kargasok,RU,59.0556,80.8572,64.45,75,100,1.34
3173758,Massa Marittima,IT,43.049,10.8928,80.08,83,0,4.79
779683,Hammerfest,NO,70.6634,23.6821,48.65,93,75,10.36
1258911,Rājāpur,IN,25.3833,81.15,95.83,44,75,6.53
474059,Vesëlyy,RU,47.0934,40.7422,71.38,44,18,7.72
3124967,Ciutadella,ES,40.0011,3.8414,83.21,72,83,13.13
2038342,Beipiao,CN,41.7919,120.7792,72.93,72,74,3.67
1045114,Inhambane,MZ,-23.865,35.3833,67.98,73,40,20.71
2073124,Darwin,AU,-12.4611,130.8418,71.31,88,11,3.44
5583739,Ada,US,43.4166,-116.1262,89.26,28,0,7.0
5446683,Ulysses,US,37.5814,-101.3552,86.02,66,20,12.66
3381041,Mana,GF,5.6592,-53.7767,82.99,74,9,9.89
4031110,Fale old settlement,TK,-9.3852,-171.2468,82.63,78,23,12.88
2633274,Akureyri,IS,65.6835,-18.0878,51.73,71,20,14.97
6173864,Vernon,CA,50.2581,-119.2691,84.0,29,2,1.14
3522605,Nueva Palestina,MX,15.8,-92.75,86.07,54,32,4.68
1275609,Bilkha,IN,21.4333,70.6,78.06,94,98,6.67
494884,Shenkursk,RU,62.1091,42.896,62.56,98,100,4.88
2065594,Mount Isa,AU,-20.7333,139.5,67.77,52,100,9.22
3441575,Montevideo,UY,-34.8335,-56.1674,62.62,67,40,9.22
5519648,Crane,US,31.3974,-102.3501,95.25,27,91,17.78
3389822,Salinópolis,BR,-0.6136,-47.3561,83.91,69,2,11.74
2217440,Ghadames,LY,30.1337,9.5007,101.05,9,0,9.78
3610693,El Porvenir,HN,13.7617,-87.3458,85.33,38,10,10.25
3041732,Mariehamn,AX,60.0973,19.9348,60.66,72,0,5.75
601594,Türkmenbaşy,TM,40.0222,52.9552,80.17,44,0,16.49
78754,Mukalla,YE,14.5425,49.1242,89.46,58,98,6.04
2480368,Sidi Khaled,DZ,34.387,4.9879,110.26,7,0,6.73
2512432,Pollença,ES,39.8768,3.0163,86.65,65,71,6.04
2127202,Anadyr,RU,64.75,177.4833,51.01,87,100,8.95
2392087,Porto-Novo,BJ,6.4965,2.6036,78.82,83,87,10.36
2161335,Kingscliff,AU,-28.2667,153.5667,48.0,93,0,1.14
1737486,Bintulu,MY,3.1667,113.0333,77.58,89,100,7.9
6324733,St. John's,CA,47.5649,-52.7093,83.68,69,75,21.85
2019135,Nizhniy Kuranakh,RU,58.8353,125.4869,50.79,96,78,3.98
2162662,Inverell,AU,-29.7833,151.1167,41.47,56,0,1.88
1214026,Sabang,ID,5.8933,95.3214,83.64,75,44,24.02
3527639,Felipe Carrillo Puerto,MX,19.5833,-88.05,96.87,40,53,7.76
3401148,Cururupu,BR,-1.8283,-44.8683,83.1,69,30,4.03
3650053,Yantzaza,EC,-3.8278,-78.7594,67.6,99,100,1.43
1521333,Lepsy,KZ,46.235,78.9456,80.37,27,0,2.46
1716963,Conduaga,PH,8.862,117.4893,79.0,87,100,4.43
5134295,Rome,US,43.2128,-75.4557,83.01,41,0,6.91
6144054,Selkirk,CA,50.1436,-96.8845,79.39,47,2,8.95
1515007,Uliastai,MN,47.7417,96.8444,62.2,37,5,6.96
5959878,Gaspé,CA,48.8334,-64.4819,70.02,68,75,13.8
924102,Rumphi,MW,-11.0186,33.8575,61.2,60,2,4.27
106297,Hafar Al-Batin,SA,28.4328,45.9708,97.79,8,0,11.36
123941,Mīnāb,IR,27.1467,57.0801,93.18,61,95,3.02
4002745,La Cruz,MX,23.9167,-106.9,89.92,62,30,8.41
1737185,Kapit,MY,2.0167,112.9333,73.53,99,99,1.48
1498087,Nadym,RU,65.5333,72.5167,70.9,62,73,7.87
4944903,Nantucket,US,41.2835,-70.0995,71.24,90,41,6.15
5424092,Gunnison,US,38.7,-107.0673,74.23,19,33,12.88
2429344,Kyabé,TD,9.4515,18.9449,75.33,84,93,3.15
686253,Arad,RO,46.3333,21.75,78.91,48,8,6.82
2013952,Ust'-Ilimsk,RU,58.0006,102.6619,59.07,53,19,1.81
1328218,Bhamo,MM,24.2667,97.2333,76.91,99,100,0.63
3991350,Puerto Palomas,MX,31.7667,-107.6167,101.37,10,28,10.13
5367788,Lompoc,US,34.6391,-120.4579,59.68,100,100,4.61
3665315,Anori,BR,-3.7728,-61.6442,98.46,26,26,5.1
1277358,Bandipura,IN,34.4167,74.65,70.03,87,46,3.0
108048,As Sulayyil,SA,20.4607,45.5779,101.17,8,87,4.72
2492345,Karkira,DZ,36.9292,6.5856,87.57,53,0,1.97
4503351,Ocean City,US,39.2776,-74.5746,80.98,71,46,8.66
80384,Dhalie,YE,13.6957,44.7314,83.3,39,99,5.41
3691582,Talara,PE,-4.5772,-81.2719,83.16,61,0,13.8
2172797,Gordonvale,AU,-17.0936,145.7842,67.96,94,31,4.16
4303951,Perry,US,37.2506,-83.1999,81.32,76,99,8.5
1750582,Peringat,MY,6.0333,102.2833,76.26,92,100,3.04
1789065,Ankang,CN,32.68,109.0172,75.47,93,100,0.58
7280414,Cole Harbour,CA,44.6724,-63.4751,75.34,85,100,12.66
4126923,Pocahontas,US,36.2615,-90.9712,85.87,70,0,8.05
949224,Thohoyandou,ZA,-22.9456,30.485,53.28,84,97,7.02
379630,El Bauga,SD,18.262,33.9081,100.89,10,59,6.04
1278580,Anjangaon,IN,21.1631,77.3094,79.56,86,100,10.51
4017152,Benjamín Hill,MX,30.1667,-111.1,94.89,34,28,6.62
3451138,Rio Grande,BR,-32.035,-52.0986,62.94,85,88,11.14
1510502,Belokurikha,RU,51.9959,84.9896,62.83,93,71,6.04
3471451,Arraial do Cabo,BR,-22.9661,-42.0278,71.46,60,40,13.8
4032420,Neiafu,TO,-18.65,-173.9833,74.08,94,100,14.97
1855670,Nanao,JP,37.05,136.9667,74.98,93,51,3.42
2269142,Colares,PT,38.7992,-9.4469,72.37,64,20,16.11
2130188,Hokuto,JP,41.8848,140.639,60.8,93,1,2.89
1857334,Mihara,JP,34.4,133.0833,73.6,83,99,4.16
2980080,Saint-François,FR,46.4154,3.9054,78.24,38,0,6.91
1788522,Hancheng,CN,32.5186,112.3522,78.58,92,97,4.52
1153464,Dok Kham Tai,TH,19.1624,99.9934,74.52,97,100,2.42
2910831,Hanover,DE,52.3705,9.7332,67.66,55,0,5.75
516647,Nyandoma,RU,61.669,40.1991,58.15,99,100,9.95
3166509,Siniscola,IT,40.5719,9.6922,90.95,53,4,4.05
4025994,Coahuayana de Hidalgo,MX,18.7,-103.6583,88.09,59,76,4.29
2120864,Susuman,RU,62.7833,148.1667,62.19,73,41,5.93
1626542,Sorong,ID,-0.8833,131.25,78.51,85,34,10.65
1519935,Qarazhal,KZ,48.0078,70.7903,80.35,26,34,1.7
3463668,Extrema,BR,-22.8547,-46.3183,71.76,57,26,2.71
6180285,Whitecourt,CA,54.1502,-115.6855,76.89,42,0,1.16
1695546,Pandan,PH,14.0453,124.1694,79.7,87,100,5.3
2020208,Markovo,RU,57.3206,107.0881,56.62,78,5,0.29
1796663,Sanming,CN,26.2486,117.6186,78.76,93,98,2.55
3435283,Comandante Fontana,AR,-25.3345,-59.6821,82.18,37,58,10.09
2409914,Bonthe,SL,7.5264,-12.505,79.48,84,100,9.04
1519385,Sergeevka,KZ,53.88,67.4158,63.52,93,85,7.83
5655240,Great Falls,US,47.5002,-111.3008,78.96,33,0,6.91
3778045,Maturin,VE,9.75,-63.1767,85.53,66,91,8.03
2122574,Ola,RU,59.5833,151.2833,56.1,87,47,2.55
5368361,Los Angeles,US,34.0522,-118.2437,84.29,52,0,10.36
3435038,Dolores,AR,-36.3132,-57.6792,58.69,63,91,10.45
6301965,Howard Springs,AU,-12.497,131.047,70.99,49,11,4.47
3988169,Salinas de Hidalgo,MX,22.6333,-101.7167,76.71,32,93,11.03
467525,Yemva,RU,62.59,50.8594,60.26,96,77,5.19
962367,Richards Bay,ZA,-28.783,32.0377,58.12,81,100,10.85
1632694,Pangkalanbuun,ID,-2.6833,111.6167,74.16,99,100,1.77
1712206,Guiuan,PH,11.0333,125.7247,82.78,77,76,2.13
5789856,Cheney,US,47.4874,-117.5758,85.44,27,40,3.44
1732826,Mersing,MY,2.4312,103.8405,76.33,91,100,5.79
3493174,San Fernando de Monte Cristi,DO,19.8667,-71.65,89.98,61,21,23.4
333795,Jijiga,ET,9.35,42.8,64.18,83,100,9.73
1850523,Tateyama,JP,34.9833,139.8667,73.22,90,22,8.81
2100633,Arawa,PG,-6.2132,155.5367,76.69,92,85,4.92
1505187,Kaa-Khem,RU,51.6833,94.7333,69.03,42,82,5.97
3437215,Quiindy,PY,-25.9667,-57.2667,82.45,45,63,10.25
2013258,Vrangel',RU,42.7297,133.0839,64.72,98,17,4.38
575349,Bologoye,RU,57.8799,34.1068,56.82,69,36,6.91
2214846,Misratah,LY,32.3754,15.0925,85.69,64,0,9.04
7670994,Kayangel,PW,8.0823,134.7173,83.44,79,98,19.57
3603157,Puerto Lempira,HN,15.2667,-83.7667,82.54,74,75,0.0
3675504,Manaure,CO,11.7751,-72.4445,92.66,47,21,24.94
533964,Loukhi,RU,66.0764,33.0381,59.63,93,100,6.64
1623197,Tual,ID,-5.6667,132.75,79.32,79,40,17.83
2147756,Swan Hill,AU,-35.3378,143.5544,40.57,94,7,7.29
2145392,Urangan,AU,-25.3,152.9,60.98,76,0,7.63
3993475,San Luis de la Loma,MX,17.2706,-100.8939,92.66,53,52,10.67
3893726,Constitución,CL,-35.3333,-72.4167,58.41,77,100,16.06
2123628,Magadan,RU,59.5667,150.8,55.99,87,48,5.06
2408329,Kabala,SL,9.5833,-11.55,77.65,91,100,3.2
142255,Bāfq,IR,31.6128,55.4107,98.67,12,14,12.26
2012557,Zheleznogorsk-Ilimskiy,RU,56.5768,104.1217,56.46,64,10,1.68
3440939,Punta del Este,UY,-34.9667,-54.95,61.18,76,75,9.22
1090397,Bandrele,YT,-12.9067,45.1914,78.55,73,0,10.36
1510450,Beloyarskiy,RU,63.7119,66.6722,64.81,78,21,4.25
2315026,Kasongo-Lunda,CD,-6.4667,16.8167,80.71,32,46,2.24
5847504,Kailua-Kona,US,19.6406,-155.9956,80.4,86,75,4.61
601299,Muynak,UZ,43.7683,59.0214,82.65,33,5,5.06
1159301,Zahedan,IR,29.4963,60.8629,87.71,20,100,9.22
608872,Maqat,KZ,47.65,53.3167,81.25,41,67,4.76
