City ID,City,Country,Lat,Lng,Temperature,Humidity,Clouds,Wind Speed
3833367,Ushuaia,AR,-54.8,-68.3,31.66,93,100,4.61
2122850,Nikolayevsk-on-Amur,RU,53.1406,140.73,62.73,96,94,2.44
1546102,Port-aux-Français,TF,-49.35,70.2167,34.61,69,89,39.24
4721703,Raymondville,US,26.4815,-97.7831,99.23,28,40,17.52
3366880,Hermanus,ZA,-34.4187,19.2345,50.81,77,0,12.8
3420846,Qaqortoq,GL,60.7167,-46.0333,45.68,93,100,5.86
4035715,Avarua,CK,-21.2078,-159.775,69.85,64,75,4.61
3046686,Pápa,HU,47.33,17.4674,69.73,73,0,0.0
3408368,Acaraú,BR,-2.8856,-40.12,81.05,65,2,18.52
5106841,Albany,US,42.6001,-73.9662,83.89,40,30,3.87
6185377,Yellowknife,CA,62.456,-114.3525,81.12,39,100,5.75
702874,Lokhvytsya,UA,50.3678,33.2602,61.97,96,99,4.07
3894871,Chonchi,CL,-42.6128,-73.8092,55.11,78,41,10.04
2175527,Blackmans Bay,AU,-43.0167,147.3167,38.35,90,29,6.35
5859699,College,US,64.8569,-147.8028,62.47,94,100,3.44
3667478,Tame,CO,6.461,-71.73,85.84,59,95,6.4
379427,Al Hasaheisa,SD,14.7526,33.2984,90.93,38,100,7.78
1503037,Kodinsk,RU,58.6881,99.1844,59.61,61,5,2.71
6082231,Mount Pearl,CA,47.5166,-52.7813,82.74,65,75,18.41
5122534,Jamestown,US,42.097,-79.2353,80.22,57,20,10.36
4041552,Saipan,MP,15.1355,145.701,81.64,100,20,5.75
8224783,Stanley,GB,54.868,-1.6985,55.72,90,20,3.44
2525513,Bovalino,IT,38.149,16.174,86.31,35,0,9.53
3647444,Calabozo,VE,8.9242,-67.4293,82.98,82,93,4.92
1545752,Port Mathurin,MU,-19.6833,63.4167,73.83,69,8,18.92
2019951,Mirny,RU,62.5353,113.9611,62.24,63,95,7.0
3423146,Ilulissat,GL,69.2167,-51.1,48.22,93,75,8.05
5282297,Bethel,US,41.3712,-73.414,83.03,61,40,5.75
2493456,Illizi,DZ,26.4833,8.4667,98.4,14,0,9.48
4039539,Taroa,MH,8.7058,171.2275,83.17,83,83,18.59
971534,Nelspruit,ZA,-25.4745,30.9703,52.09,81,100,4.61
2449067,Timbuktu,ML,16.7735,-3.0074,99.09,29,17,10.27
2018498,Olovyannaya,RU,50.95,115.5667,57.63,52,2,1.86
5983720,Iqaluit,CA,63.7506,-68.5145,40.69,100,100,4.61
1213721,Sinabang,ID,2.4803,96.3801,78.26,82,100,3.96
4030723,Adamstown,PN,-25.066,-130.1015,72.93,81,100,37.27
56399,Jamaame,SO,0.0697,42.745,76.82,84,91,12.88
3370726,Edinburgh of the Seven Seas,SH,-37.0676,-12.3116,53.15,59,17,21.5
2513477,Motril,ES,36.7507,-3.5179,86.27,43,6,5.37
731818,Dulovo,BG,43.8167,27.15,68.65,79,88,8.28
3426466,Grytviken,GS,-54.2811,-36.5092,24.93,89,98,4.12
2185172,Papatowai,NZ,-46.5619,169.4708,41.45,72,6,18.66
1490256,Talnakh,RU,69.4865,88.3972,61.21,97,52,6.4
5855809,Hawaiian Paradise Park,US,19.5933,-154.9731,76.26,95,100,5.75
3372760,Praia da Vitória,PT,38.7333,-27.0667,73.65,83,40,5.66
161931,Kizil-Arvat,TM,38.9764,56.2757,84.13,22,0,7.9
3386213,Touros,BR,-5.1989,-35.4608,78.58,67,24,19.26
4021858,Guerrero Negro,MX,27.9769,-114.0611,78.35,57,13,16.64
2156643,Mount Gambier,AU,-37.8333,140.7667,46.44,77,97,3.36
876177,Luau,AO,-10.7073,22.2247,70.81,29,6,3.78
3871336,Santiago,CL,-33.4569,-70.6483,63.54,48,75,4.61
1735106,George Town,MY,5.4112,100.3354,81.43,88,20,3.44
1006984,East London,ZA,-33.0153,27.9116,57.99,49,100,13.51
3424901,Aasiaat,GL,68.7098,-52.8699,40.44,95,100,12.44
2120864,Susuman,RU,62.7833,148.1667,67.87,62,11,5.55
1337606,Eydhafushi,MV,5.1033,73.0708,83.05,78,100,15.64
1507116,Dudinka,RU,69.4058,86.1778,61.63,97,50,8.16
1015776,Bredasdorp,ZA,-34.5322,20.0403,48.27,75,0,12.41
2035746,Mishan,CN,45.55,131.8833,66.38,92,57,1.99
5850248,Lihue,US,21.9789,-159.3672,80.08,76,100,18.41
5038045,Monticello,US,45.3055,-93.7941,74.21,61,100,10.36
4032804,Waitangi,NZ,-43.9535,-176.5597,49.68,71,98,22.24
1808857,Hanzhong,CN,33.0728,107.0303,71.4,92,92,2.75
2015306,Tiksi,RU,71.6872,128.8694,44.01,66,10,14.92
7262802,Wailua Homesteads,US,22.0669,-159.378,78.71,76,100,18.41
5856050,Holualoa,US,19.6228,-155.9522,75.9,92,40,9.22
1697696,Nieves,PH,15.3274,120.9485,78.31,90,79,1.97
7535941,Olonkinbyen,SJ,70.9221,-8.7187,42.28,82,100,3.04
973709,Mossel Bay,ZA,-34.1831,22.146,46.33,65,0,17.65
5879898,Badger,US,64.8,-147.5333,62.91,93,100,3.44
3463124,Formosa do Rio Preto,BR,-11.0483,-45.1931,85.5,20,19,8.1
2274895,Monrovia,LR,6.3005,-10.7969,76.77,90,100,11.81
1517721,Urzhar,KZ,47.093,81.6294,69.78,51,0,5.17
3778045,Maturin,VE,9.75,-63.1767,86.59,61,79,7.96
1514330,Bo`ka,UZ,40.8108,69.1986,79.2,25,88,2.28
7306523,Mejit,MH,10.2753,170.8646,82.98,80,91,18.07
964420,Port Elizabeth,ZA,-33.918,25.5701,53.89,58,75,13.8
1252745,Yellandu,IN,17.6,80.3333,75.31,90,100,11.32
1581349,Ha Giang,VN,22.8333,104.9833,76.24,99,68,0.45
1486913,Vorgashor,RU,67.5833,63.95,64.96,76,51,5.75
333287,Keren,ER,15.7778,38.4581,79.74,53,100,6.38
4033951,Papao,PF,-17.75,-149.55,76.68,65,33,18.9
2189529,Invercargill,NZ,-46.4,168.35,32.02,99,7,1.99
2126682,Bilibino,RU,68.0546,166.4372,59.86,62,98,2.33
2127202,Anadyr,RU,64.75,177.4833,51.01,93,100,8.95
1337607,Kudahuvadhoo,MV,2.6708,72.8944,83.17,72,99,7.99
2342490,Bardai,NG,11.65,7.2333,76.98,77,100,9.86
1790840,Wuzhou,CN,23.4833,111.3167,77.32,94,97,0.18
4034745,Afaahiti,PF,-17.75,-149.2833,75.07,65,22,19.33
3874958,Puerto Natales,CL,-51.7236,-72.4875,33.91,98,100,8.7
7304591,West Island,CC,-12.1568,96.8225,76.98,73,40,13.8
3415667,Isafjordur,IS,66.0755,-23.124,53.2,71,47,3.2
1163905,Tank,PK,32.2217,70.3793,94.57,50,0,2.17
5731070,Hermiston,US,45.8404,-119.2895,93.85,24,0,3.44
7522183,Atafu Village,TK,-8.5421,-172.5159,83.1,76,20,12.1
2306774,San Antonio de Palé,GQ,-1.4014,5.6325,74.86,80,66,12.01
3372783,Ponta Delgada,PT,37.7333,-25.6667,72.32,83,20,8.05
3361934,Saldanha,ZA,-33.0117,17.9442,46.45,65,0,12.12
6620339,Karratha,AU,-20.7377,116.8463,65.16,43,1,10.63
6071618,Medicine Hat,CA,50.0501,-110.6683,83.01,30,75,9.22
3520994,Brisas de Zicatela,MX,15.8369,-97.0419,90.12,55,20,6.91
2729907,Longyearbyen,SJ,78.2186,15.6401,51.64,76,20,20.71
1214369,Padangsidempuan,ID,1.3667,99.2667,70.21,99,100,2.21
2111495,Ōhara,JP,35.25,140.3833,73.42,93,30,10.78
3372707,Ribeira Grande,PT,38.5167,-28.7,72.0,88,40,5.75
680963,Constanța,RO,44.1833,28.65,70.48,83,80,4.34
4031110,Fale old settlement,TK,-9.3852,-171.2468,82.36,78,25,13.15
4033205,Uturoa,PF,-16.7333,-151.4333,76.37,63,14,17.74
5847504,Kailua-Kona,US,19.6406,-155.9956,79.74,92,40,9.22
2548830,Al Fqih Ben Çalah,MA,32.5009,-6.6906,101.12,32,43,11.36
6165406,Thompson,CA,55.7435,-97.8558,78.96,44,75,12.66
1855476,Nichinan,JP,31.6,131.3667,76.68,92,100,1.99
2081986,Palikir,FM,6.9248,158.1611,77.74,94,100,0.0
5849996,Lahaina,US,20.8783,-156.6825,80.92,87,11,10.51
2019488,Namtsy,RU,62.7161,129.6658,54.72,96,100,4.99
3983805,Santa Rosalía,MX,27.3167,-112.2833,94.42,44,0,5.08
3381303,Kourou,GF,5.1552,-52.6478,86.05,71,20,7.29
562245,Gadzhiyevo,RU,69.2551,33.3362,48.07,87,100,16.15
470905,Vuktyl,RU,63.8567,57.3094,61.27,95,97,5.19
1503153,Klyuchi,RU,52.2667,79.1667,69.3,58,55,5.59
3652764,Puerto Ayora,EC,-0.7393,-90.3518,80.55,90,58,11.01
5970458,Happy Valley-Goose Bay,CA,53.3168,-60.3315,75.51,43,75,13.8
5994839,Labrador City,CA,52.9463,-66.9114,62.51,63,100,4.61
5381515,Patterson,US,37.4716,-121.1297,84.15,11,0,4.52
3466255,Nova Xavantina,BR,-14.6667,-52.35,93.29,17,86,7.99
506763,Polyarny,RU,69.1989,33.4478,48.02,88,100,15.59
1259385,Port Blair,IN,11.6667,92.75,78.84,89,75,3.44
2013392,Vilyuysk,RU,63.7553,121.6247,58.17,87,9,5.12
3354021,Oshakati,NA,-17.7833,15.6833,68.02,18,0,9.55
2122104,Petropavlovsk-Kamchatskiy,RU,53.0452,158.6483,52.39,100,100,4.47
2014624,Udachny,RU,66.4167,112.4,53.46,100,97,1.45
2112309,Katsuura,JP,35.1333,140.3,73.78,92,37,10.78
1227037,Tangalle,LK,6.024,80.7911,78.35,87,95,12.5
4984075,Alpena,US,45.0617,-83.4327,71.92,78,75,10.36
1254046,Tura,IN,25.5198,90.2201,76.15,98,100,5.73
2074865,Carnarvon,AU,-24.8667,113.6333,55.67,47,0,18.54
3899695,Ancud,CL,-41.8697,-73.8203,52.09,88,21,19.75
3853788,Ingeniero Guillermo N. Juárez,AR,-23.9,-61.85,82.33,30,68,15.48
3443289,Castillos,UY,-34.1667,-53.8333,57.97,80,100,9.95
4513583,Hamilton,US,39.1834,-84.5333,87.71,67,75,11.5
1168700,Ormara,PK,25.2088,64.6357,82.53,74,100,8.68
2167426,Emerald,AU,-23.5333,148.1667,60.35,75,0,5.64
777073,Vadsø,NO,70.0744,29.7487,46.56,93,75,19.57
3104324,Zaragoza,ES,41.6561,-0.8773,82.47,37,0,25.32
526600,Mikun',RU,62.3547,50.0771,57.7,98,3,5.82
3026644,La Passe,FR,45.5549,-0.8967,71.83,75,100,11.18
53372,Oodweyne,SO,9.4092,45.064,79.61,46,93,16.96
2109701,Auki,SB,-8.7676,160.7034,77.36,90,97,4.92
6690296,Saint-Joseph,RE,-21.3667,55.6167,68.23,77,22,4.59
2026786,Berezovyy,RU,51.6667,135.7,69.37,67,82,3.11
3603157,Puerto Lempira,HN,15.2667,-83.7667,86.14,70,40,5.75
935214,Saint-Pierre,RE,-21.3393,55.4781,69.46,78,75,5.75
1639286,Kuala Tungkal,ID,-0.8167,103.4667,75.15,92,100,7.61
2128975,Nemuro,JP,43.3236,145.575,57.42,93,1,5.41
2738381,Lata,PT,40.1629,-8.3327,67.82,84,2,6.64
3359638,Walvis Bay,NA,-22.9575,14.5053,54.55,82,0,2.3
1632334,Pariaman,ID,-0.619,100.12,75.24,88,100,2.95
933186,Orapa,BW,-21.2833,25.3667,56.61,70,0,21.94
2381334,Atar,MR,20.5169,-13.0499,104.9,14,4,11.41
3406948,Autazes,BR,-3.5797,-59.1306,98.33,24,11,5.3
5866583,Saint Paul Harbor,US,57.79,-152.4072,54.91,94,40,0.0
7306511,Enewetak,MH,11.3474,162.3373,83.14,78,94,10.54
5557293,Sitka,US,57.0531,-135.33,62.49,67,40,4.61
87205,Darnah,LY,32.767,22.6367,80.58,78,0,12.75
3874787,Punta Arenas,CL,-53.15,-70.9167,34.36,67,100,17.27
3669461,San Juan de Urabá,CO,8.7592,-76.5297,87.1,77,91,8.79
2483000,Robbah,DZ,33.2797,6.9098,109.04,10,0,7.56
2093846,Kiunga,PG,-6.1219,141.2906,71.92,95,96,2.55
3692073,Santiago de Cao,PE,-7.9589,-79.2392,75.33,69,20,12.66
2065594,Mount Isa,AU,-20.7333,139.5,65.97,52,40,9.22
964432,Port Alfred,ZA,-33.5906,26.891,56.1,53,54,15.9
1214026,Sabang,ID,5.8933,95.3214,83.53,73,95,22.32
3694112,Paita,PE,-5.0892,-81.1144,76.15,71,0,18.32
141665,Bandar-e Lengeh,IR,26.5579,54.8807,91.72,68,100,5.28
6395804,Sinan,KR,34.8262,126.1086,71.71,83,5,7.14
5955895,Fort McMurray,CA,56.7268,-111.381,76.51,50,0,4.61
3901874,Vallegrande,BO,-18.4897,-64.1069,68.16,49,0,10.0
3840104,Puerto Deseado,AR,-47.7503,-65.8938,46.45,83,100,13.38
490213,Sosnovo,RU,60.5514,30.2144,56.12,80,100,8.39
3355672,Lüderitz,NA,-26.6481,15.1594,58.77,50,0,10.96
1076454,Andapa,MG,-14.65,49.65,66.81,97,97,2.24
2066981,Margaret River,AU,-33.95,115.0667,58.33,75,51,20.11
3985710,Cabo San Lucas,MX,22.8909,-109.9124,95.36,43,20,13.8
3448903,São João da Barra,BR,-21.6403,-41.0511,68.09,70,93,11.92
2019004,Novaya Igirma,RU,57.1334,103.9112,55.67,69,3,1.74
2886242,Cologne,DE,50.9333,6.95,68.77,53,0,3.44
3931223,Puquio,PE,-14.7,-74.1333,67.08,24,4,0.78
866062,Iskateley,RU,67.6803,53.1512,53.01,90,100,13.09
1512223,Abalak,RU,58.1286,68.5944,62.91,88,66,3.83
5338104,Cloverdale,US,38.8055,-123.0172,96.58,33,0,5.35
6941080,Fort Bragg,US,35.139,-79.006,92.3,52,40,1.01
7306518,Utrik,MH,11.2278,169.8474,83.34,78,69,18.92
1270396,Howrah,IN,22.5892,88.3103,84.2,89,40,6.91
161974,Bereket,TM,39.2446,55.5154,84.07,24,0,9.19
1682421,Tibanbang,PH,6.6315,126.1055,80.51,80,55,5.48
207570,Mwene-Ditu,CD,-7.0,23.45,76.05,29,65,3.04
3883457,Lebu,CL,-37.6167,-73.65,54.72,96,100,18.37
4615145,Cookeville,US,36.1628,-85.5016,71.44,100,99,5.75
1013076,Colesberg,ZA,-30.72,25.0972,39.29,62,100,18.66
3946083,Callao,PE,-12.0667,-77.15,75.49,57,20,11.5
415189,Aden,YE,12.7794,45.0367,86.05,75,96,10.89
2118647,Vilyuchinsk,RU,52.9306,158.4028,53.26,96,100,1.61
6324733,St. John's,CA,47.5649,-52.7093,83.59,65,75,18.41
4263635,Retreat,US,38.8245,-85.8533,85.75,70,54,5.01
3702431,Puerto Armuelles,PA,8.2833,-82.8667,88.09,73,89,7.0
2019912,Mogocha,RU,53.7333,119.7667,52.23,70,90,3.24
4026082,Lázaro Cárdenas,MX,17.9583,-102.2,90.97,56,82,6.58
3380892,Rémire-Montjoly,GF,4.9167,-52.2667,86.04,70,75,9.22
7306522,Namdrik,MH,5.5994,168.1028,82.33,81,100,20.13
6180550,Whitehorse,CA,60.7161,-135.0538,67.32,44,75,3.44
3848950,La Rioja,AR,-29.4111,-66.8507,68.86,32,60,5.19
333103,Kibre Mengist,ET,5.8833,38.9833,61.18,93,100,2.19
2172477,Cannonvale,AU,-20.2833,148.7,67.39,85,16,7.78
2120048,Ust-Nera,RU,64.5667,143.2,73.42,45,64,5.75
612652,Och'amch'ire,GE,42.7123,41.4686,70.23,88,0,2.57
2449938,Ténenkou,ML,14.4572,-4.9169,96.84,34,28,11.27
6230919,Whangarei,NZ,-35.7317,174.3239,48.9,97,30,1.57
605859,Haparanda,SE,65.8355,24.1368,60.85,85,100,10.8
2457161,Gao,ML,16.6362,1.637,98.73,30,48,11.97
2191562,Dunedin,NZ,-45.8742,170.5036,44.8,65,31,7.0
3489440,Morant Bay,JM,17.8815,-76.4093,87.42,79,18,14.61
4160812,Key West,US,24.5557,-81.7826,91.87,66,20,10.36
4026082,Lázaro Cárdenas,MX,17.9583,-102.2,90.97,56,82,6.58
2986729,Ploërmel,FR,47.9317,-2.3978,61.45,75,100,8.61
3649408,Altagracia de Orituco,VE,9.8601,-66.3814,81.48,73,87,3.27
2476403,Timimoun,DZ,29.2639,0.231,107.98,9,40,11.5
1625929,Sungai Penuh,ID,-2.0833,101.3833,63.16,96,100,1.72
3489854,Kingston,JM,17.997,-76.7936,86.95,74,75,12.66
5380437,Pacific Grove,US,36.6177,-121.9166,58.64,88,40,8.99
1054500,Tsiombe,MG,-25.3,45.4833,66.72,82,19,9.48
343409,Asaita,ET,11.5636,41.4394,99.0,26,100,6.69
3156980,Florø,NO,61.5996,5.0328,53.56,94,75,1.14
5921147,Chibougamau,CA,49.9168,-74.3659,67.62,60,75,4.16
3028129,Cavalaire-sur-Mer,FR,43.174,6.5272,81.91,63,0,3.0
1788522,Hancheng,CN,32.5186,112.3522,77.72,95,67,3.4
114259,Sīrjān,IR,29.452,55.6814,89.51,19,100,18.43
2638419,Scarborough,GB,54.2797,-0.4044,55.69,87,100,3.71
1512165,Achinsk,RU,56.2694,90.4993,60.58,75,100,6.13
286245,Sur,OM,22.5667,59.5289,91.22,55,100,8.41
2202064,Nadi,FJ,-17.8,177.4167,73.4,94,100,3.44
1280849,Kashgar,CN,39.4547,75.9797,87.01,23,99,13.42
3415496,Keflavik,IS,64.0049,-22.5624,54.03,87,100,5.75
483019,Tikhvin,RU,59.6451,33.5294,59.22,84,98,6.24
2349558,Apomu,NG,7.3333,4.1833,73.4,97,100,3.76
3576994,Cockburn Town,TC,21.4612,-71.1419,82.69,80,100,18.92
2374583,Bubaque,GW,11.2833,-15.8333,81.46,78,100,9.93
1818051,Anjiang,CN,27.3194,110.1031,76.68,88,57,3.58
5134295,Rome,US,43.2128,-75.4557,84.04,37,0,8.05
729507,Lukovit,BG,43.2,24.1667,80.06,65,0,5.66
2627309,Sauðarkrokur,IS,65.7461,-19.6394,51.53,68,30,4.23
3620266,Corn Island,NI,12.1694,-83.0418,82.65,83,100,15.1
2263905,Ribeira Brava,PT,32.65,-17.0667,74.8,77,0,5.44
3870243,Taltal,CL,-25.4,-70.4833,64.38,74,74,1.79
2505530,Béchar,DZ,31.6167,-2.2167,102.52,10,40,5.75
2012626,Zavitinsk,RU,50.1167,129.45,61.84,97,99,7.11
2122605,Okhotsk,RU,59.3833,143.3,56.5,89,32,1.92
1215502,Banda Aceh,ID,5.5577,95.3222,80.13,76,95,13.87
2171596,Chinchilla,AU,-26.75,150.6333,50.68,57,1,8.19
2644605,Lerwick,GB,60.1545,-1.1494,51.8,84,100,16.75
1802526,Longmen,CN,24.9597,118.0889,83.01,93,100,2.24
569116,Chern',RU,53.4523,36.9145,57.6,82,100,7.16
476062,Velikiy Ustyug,RU,60.7644,46.3106,58.89,98,99,8.37
1229989,Point Pedro,LK,9.8167,80.2333,83.5,77,100,18.01
2028606,Cecerleg,MN,47.475,101.4542,53.04,68,2,3.47
2037335,Fuyu,CN,45.1833,124.8167,69.48,71,100,5.37
3875070,Pucón,CL,-39.2822,-71.9543,52.52,98,100,8.14
609655,Karaganda,KZ,49.8019,73.1021,57.15,55,0,5.64
2012728,Zakamensk,RU,50.3741,103.2863,49.08,98,27,1.61
2057087,Kupang,ID,-10.1667,123.5833,76.01,73,11,13.35
1784841,Zhaotong,CN,27.3167,103.7167,60.6,94,40,1.1
1879029,Changyŏn,KP,38.2508,125.0961,71.46,69,69,1.68
1820491,Kuala Belait,BN,4.5833,114.1833,77.16,92,100,7.23
601349,Kegeyli Shahar,UZ,42.7767,59.6078,80.69,26,4,8.57
2037799,Datong,CN,40.0936,113.2914,69.55,68,98,5.17
1267390,Kavaratti,IN,10.5669,72.642,82.62,80,100,19.98
2100633,Arawa,PG,-6.2132,155.5367,76.75,92,44,4.36
916246,Kabompo,ZM,-13.5927,24.2008,61.05,37,6,5.75
2276492,Harper,LR,4.375,-7.7169,77.02,86,62,12.17
1785777,Yulinshi,CN,38.2906,109.7494,69.15,73,67,4.5
3347019,Mossamedes,AO,-15.1961,12.1522,65.52,77,94,3.8
3858677,El Calafate,AR,-50.3408,-72.2768,37.51,98,100,1.21
1517323,Yanykurgan,KZ,43.915,67.2481,80.74,27,0,8.48
5989403,Kapuskasing,CA,49.4169,-82.4331,71.6,60,75,3.44
2337680,Illela,NG,13.7292,5.2975,95.04,39,82,8.9
1521370,Ridder,KZ,50.355,83.5133,61.43,86,91,4.74
3471451,Arraial do Cabo,BR,-22.9661,-42.0278,71.46,64,40,14.97
4944903,Nantucket,US,41.2835,-70.0995,73.13,87,40,6.91
6111632,Port Alberni,CA,49.2413,-124.8028,86.11,39,58,7.0
8030383,Mermoz Boabab,SN,14.7065,-17.4758,82.18,78,20,6.91
523392,Naryan-Mar,RU,67.6713,53.087,52.95,90,100,13.27
5017822,Bemidji,US,47.4736,-94.8803,76.3,59,40,10.36
300797,Silopi,TR,37.2497,42.4694,87.17,12,0,3.49
2478216,Tamanghasset,DZ,22.785,5.5228,93.11,9,0,11.5
1280957,Jiayuguan City,CN,39.8167,98.3,71.11,31,0,5.57
5520677,Eagle Pass,US,28.7091,-100.4995,100.04,38,0,11.5
2081114,Weno,FM,7.4515,151.8468,82.35,89,100,3.44
3893629,Coquimbo,CL,-29.9533,-71.3436,60.53,82,0,8.05
1153634,Chom Thong,TH,18.4174,98.6743,79.05,93,100,3.0
2082600,Jayapura,ID,-2.5333,140.7,72.79,91,100,4.52
5637146,Anaconda,US,46.1285,-112.9423,83.39,21,32,4.79
2751738,Lelystad,NL,52.5083,5.475,63.68,73,25,1.01
359792,Aswān,EG,24.0934,32.907,99.7,18,0,0.0
2140691,Koné,NC,-21.0595,164.8658,59.59,82,7,3.27
3413604,Selfoss,IS,63.9331,-20.9971,60.04,82,99,10.02
2838600,Schleusingen,DE,50.5167,10.75,60.15,64,96,4.05
2446466,Bouza,NE,14.4229,6.0428,94.12,37,73,11.56
2012938,Yerofey Pavlovich,RU,53.9667,121.9667,49.64,81,23,3.91
3570392,Le Vauclin,MQ,14.5452,-60.8388,87.85,66,20,13.8
5563839,Fortuna,US,40.5982,-124.1573,61.0,89,100,6.91
2192362,Christchurch,NZ,-43.5333,172.6333,35.92,76,75,4.61
4004148,Jalpa,MX,21.6333,-102.9667,90.99,21,46,3.36
2159018,Malabar,AU,-33.9667,151.25,51.58,55,100,10.36
4036284,Alofi,NU,-19.0595,-169.9187,71.49,78,93,6.91
746983,Gelibolu,TR,40.4103,26.6708,85.86,58,42,2.73
88319,Benghazi,LY,32.1167,20.0667,82.31,73,0,9.35
2068110,Kununurra,AU,-15.7667,128.7333,60.78,72,80,0.0
100926,Umluj,SA,25.0213,37.2685,90.19,45,0,4.45
3517970,San Pedro Pochutla,MX,15.7333,-96.4667,96.71,50,1,8.68
2208485,Zliten,LY,32.4674,14.5687,82.22,76,0,6.58
3804949,Guasdualito,VE,7.2424,-70.7324,87.76,66,40,4.61
2119447,Yuzhno-Kurilsk,RU,44.0306,145.8556,56.1,95,12,5.84
1043893,Lichinga,MZ,-13.3128,35.2406,62.69,63,75,4.61
2155415,New Norfolk,AU,-42.7826,147.0587,41.04,89,71,2.48
3383329,Distrikt Paramaribo,SR,5.8667,-55.1667,89.51,58,40,11.5
4796512,Saint Croix,VI,17.7397,-64.7388,86.45,66,40,12.66
2032081,Saynshand,MN,44.8824,110.1163,66.09,72,100,22.24
1337605,Mahibadhoo,MV,3.7833,72.9667,81.91,78,95,8.61
2145392,Urangan,AU,-25.3,152.9,61.25,76,0,7.34
5848280,Kapaa,US,22.0752,-159.319,80.26,75,100,18.41
2269514,Castelo Branco,PT,39.8222,-7.4909,68.5,48,0,11.56
3456944,Mongaguá,BR,-24.0931,-46.6208,71.65,86,81,11.3
3992485,Pinos,MX,22.3,-101.5667,75.52,26,86,14.88
108512,Arar,SA,30.9753,41.0381,98.62,6,0,0.0
1529569,Changji,CN,44.0167,87.3167,79.59,50,0,6.71
3904906,Santa Cruz de la Sierra,BO,-17.8,-63.1667,82.45,47,0,17.27
964408,Port Saint John's,ZA,-31.6229,29.5448,56.55,57,87,4.16
6053316,Levuka,CA,50.1834,-105.4011,78.53,36,40,8.05
3652758,Puerto Baquerizo Moreno,EC,-0.9,-89.6,81.59,74,20,11.5
3832376,Yacimiento Río Turbio,AR,-51.5732,-72.3508,28.42,98,100,8.39
2409306,Freetown,SL,8.484,-13.2299,80.31,89,75,8.05
3354898,Okahandja,NA,-21.9833,16.9167,57.54,17,0,5.5
2135171,Port-Vila,VU,-17.7338,168.3219,65.8,100,75,2.3
3662342,São Gabriel da Cachoeira,BR,-0.1303,-67.0892,82.2,74,75,11.5
2637343,Southport,GB,53.6478,-3.0065,60.62,67,20,11.5
2487620,Metlili Chaamba,DZ,32.2667,3.6333,106.74,9,0,3.44
7262697,Haiku-Pauwela,US,20.9219,-156.3051,77.29,77,75,18.41
4014501,Charcas,MX,23.1333,-101.1167,79.63,26,100,15.01
6320062,Fortaleza,BR,-3.7227,-38.5247,84.33,58,0,17.27
88533,Awjilah,LY,29.1081,21.2869,87.39,41,0,14.52
2400555,Franceville,GA,-1.6333,13.5836,81.25,45,100,4.41
1152222,Mae Hong Son,TH,19.3003,97.9685,75.15,99,100,1.39
2129218,Yoichi,JP,43.2039,140.7703,66.11,87,0,5.55
3693584,Pimentel,PE,-6.8367,-79.9342,79.09,61,0,17.27
2450173,Taoudenni,ML,22.6783,-3.9836,106.79,7,0,6.82
2616038,Næstved,DK,55.2299,11.7609,61.02,74,56,11.48
2344229,Dutsen Wai,NG,10.8501,8.199,69.84,93,100,6.06
245338,Am Timan,TD,11.0297,20.2827,75.07,76,53,3.4
2274275,Robertsport,LR,6.7533,-11.3686,77.76,88,100,12.08
3868626,Valparaíso,CL,-33.0393,-71.6273,56.17,85,100,9.22
610132,Chapaev,KZ,50.2,51.1667,66.7,55,15,5.99
60019,Eyl,SO,7.9803,49.8164,77.54,76,78,25.86
5955960,Fort St. John,CA,56.2499,-120.8529,75.09,41,0,4.61
609906,Fort-Shevchenko,KZ,44.5086,50.263,77.36,67,0,8.55
5379524,Orange,US,33.7,-117.7675,90.46,44,20,5.75
2108857,Gizo Government Station,SB,-8.103,156.8419,80.6,84,100,16.6
2616914,Miðvágur,FO,62.0511,-7.1939,49.03,93,100,13.8
3994607,Nuevo Ideal,MX,24.8875,-105.0728,86.45,19,75,9.01
286621,Salalah,OM,17.0151,54.0924,78.89,100,100,2.3
1516393,Altai,MN,46.3722,96.2583,64.58,25,36,3.91
6534196,Tazacorte,ES,28.629,-17.9293,76.15,83,75,19.57
3388991,São Bento,BR,-6.2833,-37.75,84.56,29,0,11.99
5087105,Hampstead,US,42.8745,-71.1812,82.06,53,75,5.75
2032614,Baruun-Urt,MN,46.6806,113.2792,58.53,82,100,13.15
1259756,Phulbāni,IN,20.4667,84.2333,75.38,96,100,1.39
4726521,San Patricio,US,28.017,-97.5169,95.77,41,3,16.02
138042,Damāvand,IR,35.7178,52.065,72.97,51,87,7.02
1586203,Can Tho,VN,10.0333,105.7833,76.98,100,75,3.44
1680312,Umiray,PH,15.2206,121.4111,79.84,85,43,1.81
2155562,Nelson Bay,AU,-32.7167,152.15,51.94,63,16,10.0
2204582,Labasa,FJ,-16.4167,179.3833,77.02,93,88,10.02
912764,Kasama,ZM,-10.2129,31.1808,60.17,45,0,5.59
680894,Corbasca,RO,46.2833,27.1667,67.23,72,9,10.63
2171099,Codrington,AU,-38.2667,141.9667,42.66,80,37,7.7
7306516,Mili,MH,6.0815,171.735,83.12,81,97,19.55
3591060,Puerto San José,GT,13.9256,-90.8244,89.24,60,1,9.35
1260393,Paradip,IN,20.3167,86.6167,82.42,87,97,5.17
2467454,Sfax,TN,34.7406,10.7603,91.54,62,0,9.22
5805505,Ocean Shores,US,46.9737,-124.1563,62.42,91,100,10.36
203717,Yangambi,CD,0.8102,24.4336,74.62,82,85,0.31
3372472,Vila Franca do Campo,PT,37.7167,-25.4333,72.01,72,100,1.01
4740941,West Livingston,US,30.6983,-95.0019,96.85,28,0,1.72
6696767,Langepas,RU,61.2544,75.2124,66.63,60,100,6.98
6301965,Howard Springs,AU,-12.497,131.047,70.68,49,17,5.64
2109528,Buala,SB,-8.145,159.5921,79.79,88,95,3.98
4269789,Coffeyville,US,37.0373,-95.6164,90.52,63,20,5.75
7601774,Bikenibeu Village,KI,1.3673,173.1241,80.56,94,40,1.14
2078127,Flying Fish Cove,CX,-10.4217,105.6791,74.88,83,100,11.5
2400547,Gamba,GA,-2.65,10.0,69.71,91,54,6.08
1488774,Tyukhtet,RU,56.5389,89.3011,61.83,64,100,5.68
2138285,Tadine,NC,-21.55,167.8833,67.24,66,0,13.8
1490805,Strelka,RU,58.0728,93.0344,57.72,70,38,4.09
3124967,Ciutadella,ES,40.0011,3.8414,79.61,84,100,13.82
3925040,Jaru,BR,-10.4389,-62.4664,94.51,28,0,2.26
3874943,Quellón,CL,-43.1167,-73.6167,55.65,71,75,11.5
2188874,Kerikeri,NZ,-35.2268,173.9474,48.85,94,29,2.84
1280037,Shache,CN,38.4167,77.2406,85.71,24,92,8.63
1519422,Semey,KZ,50.4111,80.2275,71.38,52,15,4.47
409993,Al Muwayh,SA,22.4333,41.7583,86.22,16,41,10.83
4781711,Richlands,US,37.0932,-81.7937,76.55,83,100,5.75
473943,Ves'yegonsk,RU,58.664,37.2604,56.01,83,100,10.85
3932145,Pisco,PE,-13.7,-76.2167,71.65,73,20,11.5
6453932,Ploudalmézeau,FR,48.5333,-4.65,61.16,72,0,6.91
739598,Sinop Province,TR,41.7711,34.8709,66.65,77,0,3.89
2643044,Margate,GB,51.3813,1.3862,62.22,82,91,5.01
5410430,Woodland,US,38.6785,-121.7733,89.11,37,0,4.61
3381041,Mana,GF,5.6592,-53.7767,82.96,74,7,9.4
63081,Alula,SO,11.9661,50.7569,88.03,56,99,4.83
552465,Kargopol',RU,61.5071,38.9456,56.95,98,100,12.1
2136825,Isangel,VU,-19.55,169.2667,69.91,94,100,0.0
1226260,Trincomalee,LK,8.5711,81.2335,81.77,76,85,23.29
962367,Richards Bay,ZA,-28.783,32.0377,58.17,78,100,9.55
3140301,Sandnessjøen,NO,66.0217,12.6316,55.45,82,75,2.3
3018794,Fécamp,FR,49.7579,0.3746,62.85,74,100,8.3
486186,Suoyarvi,RU,62.0833,32.35,59.77,68,100,7.07
1650670,Baki,ID,-7.6128,110.7839,71.94,83,20,12.28
3893726,Constitución,CL,-35.3333,-72.4167,57.27,81,100,15.73
3369174,Calvinia,ZA,-31.4707,19.776,42.24,55,0,18.68
3007688,Arrondissement de Langon,FR,44.5,-0.3333,70.02,67,62,7.78
211647,Lodja,CD,-3.4833,23.4333,78.13,39,1,0.6
4290988,Elizabethtown,US,37.694,-85.8591,80.4,83,75,9.22
2504581,Beni Saf,DZ,35.301,-1.3823,91.69,46,4,5.17
6141439,Sault Ste. Marie,CA,46.5168,-84.3333,64.54,96,100,5.75
134217,Bandar-e Genāveh,IR,29.5791,50.517,95.02,49,0,9.31
576519,Bezopasnoye,RU,45.6483,41.936,67.91,45,0,7.34
5868651,Meadow Lakes,US,61.6247,-149.6011,59.4,88,100,0.0
127033,Khvānsār,IR,33.2205,50.315,75.69,27,74,11.01
1062663,Mahajanga,MG,-15.7167,46.3167,78.82,69,75,3.44
64670,Bargaal,SO,11.2864,51.0773,80.19,70,95,18.03
1106643,Quatre Cocos,MU,-20.2078,57.7625,70.09,75,8,9.19
2634135,Whitby,GB,54.4877,-0.615,58.37,79,91,2.44
1623197,Tual,ID,-5.6667,132.75,79.36,78,11,17.87
2399697,Libreville,GA,0.3925,9.4537,77.02,83,20,6.91
933151,Rakops,BW,-21.0167,24.3333,59.7,56,24,18.81
4946620,Palmer,US,42.1584,-72.3287,84.11,42,0,1.01
6113406,Prince Rupert,CA,54.3161,-130.3201,57.42,90,0,3.44
3924908,Pimenta Bueno,BR,-11.6725,-61.1936,96.31,21,0,4.41
2124286,Korsakov,RU,46.6328,142.7813,59.85,96,56,4.56
1492149,Shira,RU,54.4911,89.9531,64.9,60,100,5.03
3693191,Puerto Santa,PE,-8.9906,-78.6456,72.41,73,23,13.33
6144054,Selkirk,CA,50.1436,-96.8845,81.9,45,31,8.3
2081342,Tofol,FM,5.3248,163.0078,81.39,83,100,20.22
4032369,Pangai,TO,-19.8,-174.35,71.71,78,100,19.57
2122574,Ola,RU,59.5833,151.2833,58.32,82,18,2.93
3354071,Oranjemund,NA,-28.55,16.4333,58.35,41,0,11.05
471501,Vostochnyy,RU,55.8167,37.8667,59.79,76,5,5.7
4179667,Americus,US,32.0724,-84.2327,93.33,52,20,8.05
1626099,Sumenep,ID,-7.0167,113.8667,74.68,78,3,4.38
1847947,Shingū,JP,33.7333,135.9833,75.76,86,100,3.09
935215,Saint-Philippe,RE,-21.3585,55.7679,69.39,81,42,7.23
3580733,Bodden Town,KY,19.2833,-81.25,89.91,73,75,16.11
1256382,Siddhapur,IN,23.9167,72.3833,82.13,88,62,5.73
2173911,Broken Hill,AU,-31.95,141.4333,43.93,82,4,9.93
1808872,Fu’an,CN,27.0892,119.6453,77.92,98,93,1.81
5099357,Hudson,US,40.7168,-74.0663,84.69,49,40,10.36
1263997,Mahabalipuram,IN,12.6264,80.1722,89.65,54,100,18.32
2077895,Alice Springs,AU,-23.7,133.8833,47.75,76,75,5.75
2016110,Sretensk,RU,52.2453,117.7093,52.74,69,5,1.45
5367788,Lompoc,US,34.6391,-120.4579,67.75,100,40,5.75
1263879,Mandāwar,IN,29.5,78.1333,85.46,65,22,5.14
344620,Hagere Maryam,ET,5.6333,38.2333,61.21,80,100,1.03
1062553,Mahanoro,MG,-19.9,48.8,69.28,88,74,3.36
1522203,Kokshetau,KZ,53.2775,69.3883,62.8,89,86,8.95
728824,Nesebar,BG,42.7833,27.7333,72.48,77,90,7.67
3946820,Barranca,PE,-10.75,-77.7667,70.48,69,9,10.4
173322,Al Quşayr,SY,34.5091,36.5798,77.79,50,0,3.06
5916722,Carbonear,CA,47.7332,-53.2148,84.04,78,29,11.99
234178,Bundibugyo,UG,0.7414,30.0417,72.59,62,47,1.88
5961564,Glace Bay,CA,46.1969,-59.957,72.79,87,100,10.36
2647356,Hastings,GB,50.8552,0.5729,64.72,23,100,4.36
1277844,Bagulā,IN,23.3167,88.65,81.61,90,100,9.13
3470164,Bela Vista de Goiás,BR,-16.9728,-48.9533,83.55,34,44,10.87
1242110,Kalmunai,LK,7.4167,81.8167,81.32,65,97,3.91
2112802,Hasaki,JP,35.7333,140.8333,73.87,89,1,10.45
3870282,Talcahuano,CL,-36.7167,-73.1167,55.08,100,100,27.63
3577107,Savaneta,AW,12.45,-69.9333,87.69,70,20,29.93
6361421,Deltebre,ES,40.7499,0.7868,78.03,88,32,9.75
5826559,Green River,US,41.5286,-109.4662,76.64,43,7,1.99
1163054,Turbat,PK,26.0023,63.044,86.4,68,100,4.72
1840886,Mungyeong,KR,36.5946,128.1995,74.57,94,0,1.01
1492566,Severo-Yeniseyskiy,RU,60.3725,93.0408,56.71,61,0,4.0
2027786,Amga,RU,60.8953,131.9608,55.02,99,100,7.72
7647007,Bariloche,AR,-41.1456,-71.3082,42.55,81,100,13.8
3111107,Salamanca,ES,40.8333,-6.0,75.65,38,0,16.02
912628,Kasempa,ZM,-13.4584,25.8338,61.23,37,1,5.06
655194,Jyvaskyla,FI,62.2415,25.7209,60.33,81,0,4.61
3170069,Porto Torres,IT,40.835,8.3972,80.78,70,56,1.41
2514651,Los Llanos de Aridane,ES,28.6585,-17.9182,73.13,83,75,19.57
3533462,Acapulco de Juárez,MX,16.8634,-99.8901,91.22,58,0,10.36
3571224,West End,BS,26.6833,-78.9667,89.58,67,100,6.87
2022083,Kirensk,RU,57.7853,108.1119,54.88,82,8,0.56
3446098,Três Lagoas,BR,-20.7511,-51.6783,84.67,40,0,7.9
3639107,Juan Griego,VE,11.0817,-63.9655,85.33,68,3,15.64
2063036,Port Lincoln,AU,-34.7333,135.8667,50.5,71,15,7.18
1563281,Tuy Hoa,VN,13.0833,109.3,77.54,89,92,3.36
1066514,Betafo,MG,-19.8333,46.85,56.19,72,13,4.05
2013639,Verkhnevilyuysk,RU,63.4453,120.3167,57.96,83,23,4.43
110250,Afif,SA,23.9065,42.9172,88.48,13,35,12.75
2409914,Bonthe,SL,7.5264,-12.505,77.32,89,100,7.56
2142316,Yeppoon,AU,-23.1333,150.7333,56.98,85,0,3.44
1520025,Tūghyl,KZ,47.7252,84.2063,68.85,59,0,3.44
1822029,Stung Treng,KH,13.5259,105.9683,74.44,98,100,3.2
1586443,Ca Mau,VN,9.1769,105.15,76.64,88,88,10.58
3935288,Minas de Marcona,PE,-15.2119,-75.1103,64.08,61,7,9.22
5850027,Lā‘ie,US,21.6477,-157.9253,81.34,75,73,11.99
2392087,Porto-Novo,BJ,6.4965,2.6036,78.62,85,92,8.77
2147714,Sydney,AU,-33.8679,151.2073,51.69,56,100,10.36
3572620,Colonel Hill,BS,22.7667,-74.2167,83.86,78,100,16.75
1625908,Sungai Raya,ID,0.7,108.9,77.54,88,100,5.14
62788,Ceeldheer,SO,3.8488,47.1806,77.54,81,97,25.01
1501255,Kurtamysh,RU,54.9103,64.4319,62.01,86,93,8.43
2110560,Yamada,JP,39.4667,141.95,65.32,95,44,1.61
1314759,Lashio,MM,22.9333,97.75,69.44,99,100,0.85
3352844,Swakopmund,NA,-22.6833,14.5333,54.45,82,0,2.98
160141,Dunda,TZ,-8.1167,34.25,63.57,58,0,4.05
3931470,Puerto Maldonado,PE,-12.6,-69.1833,84.6,42,0,2.3
3435038,Dolores,AR,-36.3132,-57.6792,56.61,74,11,8.57
2123628,Magadan,RU,59.5667,150.8,59.5,80,22,3.62
1485680,Yurty,RU,56.0498,97.6348,54.3,75,0,5.19
5694163,Chadron,US,42.8294,-102.9999,62.28,82,100,5.75
3546791,Moa,CU,20.6569,-74.9403,88.83,68,99,16.26
3867009,Abra Pampa,AR,-22.7205,-65.697,63.23,8,55,3.62
3394605,Monte Alegre,BR,-2.0078,-54.0692,93.4,38,32,6.26
363417,Dongola,SD,19.1667,30.4833,99.43,10,10,4.12
2978351,Saint-Martin-des-Champs,FR,48.5833,-3.8333,61.68,77,75,6.91
1028434,Quelimane,MZ,-17.8786,36.8883,75.15,83,75,8.05
63344,Cadale,SO,2.7603,46.3222,77.7,85,99,19.75
6050066,La Ronge,CA,55.1001,-105.2842,75.45,50,75,8.05
986717,Kruisfontein,ZA,-34.0033,24.7314,45.88,71,1,5.95
232235,Kapchorwa,UG,1.3965,34.4509,59.43,74,44,4.76
3430863,Mar del Plata,AR,-38.0023,-57.5575,56.95,72,20,18.01
1037390,Mozambique,MZ,-15.0342,40.7358,76.69,77,0,18.28
3674121,Muzo,CO,5.5353,-74.1078,90.1,39,66,0.29
543436,Kovylkino,RU,54.0388,43.9139,56.55,86,4,9.62
3166400,Sona,IT,45.4388,10.8255,79.75,69,0,1.14
3466165,Cidreira,BR,-30.1811,-50.2056,63.66,85,100,16.58
5908723,Bridgewater,CA,44.3835,-64.5155,73.99,86,100,9.22
6453331,Kristiansund,NO,63.1115,7.732,56.05,76,40,6.91
2142747,Wynyard,AU,-41.0,145.7167,43.88,82,4,8.21
